     2.10           OBSERVATION DATA    G (GPS)             RINEX VERSION / TYPE
teqc  2002Mar14     Buddinge GPS        20050921 00:03:57UTCPGM / RUN BY / DATE
Linux 2.0.36|Pentium II|gcc -static|Linux|486/DX+           COMMENT
teqc  2002Mar14     Buddinge GPS        20050921 00:01:39UTCCOMMENT
teqc  2002Mar14                         20050920 00:59:48UTCCOMMENT
MSWin2000|IAx86-PII|wcl386 11.0|MSWin95/98/NT/2000|486/DX+  COMMENT
BIT 2 OF LLI FLAGS DATA COLLECTED UNDER A/S CONDITION       COMMENT
BUDP                                                        MARKER NAME
10101M003                                                   MARKER NUMBER
KMS                 KMS                                     OBSERVER / AGENCY
11106               ASHTECH UZ-12       CJ00/0A16           REC # / TYPE / VERS
95104               ASH701941.B     UNAV                    ANT # / TYPE
  3513638.5600   778956.1840  5248216.2480                  APPROX POSITION XYZ
        0.0000        0.0000        0.0000                  ANTENNA: DELTA H/E/N
     1     1                                                WAVELENGTH FACT L1/2
     7    L1    L2    C1    P2    P1    D1    D2            # / TYPES OF OBSERV
    30.0000                                                 INTERVAL
APPROX POSITION Coordinates are ETRS89                      COMMENT
 SNR is mapped to RINEX snr flag value [1-9]                COMMENT
  L1: 1 -> 1;  90 -> 5; 210 -> 9                            COMMENT
  L2: 1 -> 1; 150 -> 5; 250 -> 9                            COMMENT
Forced Modulo Decimation to 30 seconds                      COMMENT
  2005     9    20     0     0    0.0000000     GPS         TIME OF FIRST OBS
                                                            END OF HEADER
 05  9 20  0  0  0.0000000  0  9G28G11G 1G 3G18G19G14G 9G22
 -10849689.64643  -8443894.28242  23734084.4404   23734085.8264   23734083.3254
       842.0244        656.1214
 -22087642.24743 -17159590.47942  21537750.0344   21537752.2884   21537750.0304
      2256.4524       1758.2704
  -9827878.47043  -7608777.07242  23937384.5094   23937388.0134   23937383.6684
      3479.0724       2710.9714
 -12470856.95443  -9672543.21342  23143394.5854   23143399.2634   23143395.0154
     -3450.8784      -2688.9794
  -3543912.08843  -2721216.28442  25307542.6444   25307543.2804   25307541.7934
     -3550.7484      -2766.8124
 -23720968.02143 -18414094.56242  21068225.1464   21068225.9204   21068224.2924
     -1553.4524      -1210.4854
 -14566148.81043 -11293525.79942  22451274.6214   22451277.0564   22451273.7284
      2096.6334       1633.7604
  -3641287.37643  -2805272.78242  24717353.9344   24717355.3484   24717354.1754
      1091.9434        850.8614
 -17757580.44243 -13785144.24642  22385420.6834   22385421.4274   22385420.2804
     -2568.1404      -2001.1504
 05  9 20  0  0 30.0000000  0  9G28G11G 1G 3G18G19G14G 9G22
 -10874648.02543  -8463342.36142  23729334.6364   23729337.0784   23729333.6984
       822.4484        640.8474
 -22155156.06643 -17212198.64542  21524902.8134   21524905.2884   21524902.8334
      2244.9584       1749.3174
  -9932132.68043  -7690014.08142  23917545.6844   23917548.7214   23917545.0454
      3471.9194       2705.3944
 -12367193.50243  -9591766.51842  23163122.6774   23163125.8264   23163122.0724
     -3459.2884      -2695.5254
  -3437353.88743  -2638183.90942  25327819.3714   25327819.1174   25327817.5634
     -3552.9704      -2768.5444
 -23674090.27843 -18377566.46542  21077145.8384   21077146.7444   21077144.8514
     -1571.1654      -1224.2794
 -14628777.95843 -11342327.71942  22439357.9424   22439358.3044   22439356.1514
      2079.1154       1620.1004
  -3673720.92643  -2830545.64642  24711181.9904   24711184.6784   24711180.5264
      1071.0914        834.6124
 -17680352.94443 -13724966.98142  22400116.2904   22400117.6174   22400116.6184
     -2579.7684      -2010.1964
 05  9 20  0  1  0.0000000  0  9G28G11G 1G 3G18G19G14G 9G22
 -10899036.09343  -8482346.05642  23724693.8144   23724695.7474   23724692.2144
       803.1134        625.8004
 -22222344.51243 -17264553.27442  21512117.8384   21512119.3774   21512117.7004
      2233.9294       1740.7204
 -10036191.55243  -7771098.88742  23897744.4494   23897746.9904   23897744.0204
      3465.2244       2700.1914
 -12263303.32943  -9510813.14442  23182891.1674   23182894.7054   23182890.6014
     -3467.0694      -2701.6224
  -3330719.87543  -2555092.45342  25348111.1974   25348112.0184   25348109.4904
     -3555.9494      -2770.8774
 -23626700.18143 -18340639.12742  21086164.4354   21086164.6124   21086163.0334
     -1588.4904      -1237.7844
 -14690899.42643 -11390734.03442  22427534.8644   22427537.1514   22427534.7044
      2061.9644       1606.7354
  -3705552.78043  -2855349.68242  24705124.1934   24705127.1774   24705124.5304
      1050.2774        818.4044
 -17602802.40543 -13664537.98342  22414874.1544   22414874.3654   22414874.0924
     -2590.5354      -2018.5934
 05  9 20  0  1 30.0000000  0  9G28G11G 1G 3G18G19G14G 9G22
 -10922853.30043  -8500904.93942  23720160.9364   23720164.1974   23720160.0564
       784.7204        611.4684
 -22289206.24643 -17316653.32542  21499394.5084   21499396.2354   21499394.2694
      2223.6184       1732.6904
 -10140052.16343  -7852029.21342  23877980.6384   23877982.4194   23877979.4054
      3459.0324       2695.3534
 -12159188.39843  -9429684.64642  23202704.6754   23202708.1854   23202703.5954
     -3473.9074      -2706.9274
  -3224011.75543  -2471943.28942  25368417.0704   25368418.2744   25368416.6854
     -3557.6734      -2772.1994
 -23578798.87043 -18303313.44042  21095279.2824   21095280.0454   21095278.2264
     -1604.6844      -1250.3954
 -14752510.92143 -11438742.97742  22415810.6874   22415812.9994   22415810.2284
      2045.6084       1593.9894
  -3736781.47943  -2879683.74342  24699180.8374   24699183.7044   24699178.5454
      1031.0574        803.4274
 -17524929.84943 -13603858.06742  22429692.5914   22429693.1424   22429692.2244
     -2600.9984      -2026.7624
 05  9 20  0  2  0.0000000  0  9G28G11G 1G 3G18G19G14G 9G22
 -10946099.04443  -8519018.51742  23715738.1974   23715738.5964   23715737.3254
       765.4794        596.5004
 -22355739.93643 -17368497.74842  21486733.3794   21486735.1844   21486732.7374
      2212.4864       1724.0164
 -10243711.52743  -7932802.71142  23858252.5634   23858258.2244   23858252.1284
      3451.9454       2689.8104
 -12054851.22843  -9348382.96642  23222558.1484   23222563.0494   23222558.1124
     -3481.4284      -2712.7744
  -3117230.96543  -2388737.49842  25388735.7574   25388737.9744   25388735.2954
     -3560.4224      -2774.3524
 -23530387.32543 -18265590.17042  21104491.7364   21104492.7924   21104490.3794
     -1621.9564      -1263.8544
 -14813610.02543 -11486352.65142  22404184.1724   22404186.2854   22404183.8814
      2028.1284       1580.3574
  -3767405.24543  -2903546.42742  24693355.5044   24693356.2414   24693354.9134
      1010.8864        787.7004
 -17446738.21343 -13542929.52142  22444572.8174   22444572.3674   22444571.8824
     -2611.5114      -2034.9434
 05  9 20  0  2 30.0000000  0  9G28G11G 1G 3G18G19G14G 9G22
 -10968772.28643  -8536685.96742  23711423.6554   23711426.5174   23711422.7184
       746.2924        581.5194
 -22421944.11943 -17420085.42042  21474135.1464   21474137.0334   21474134.7974
      2201.3394       1715.3234
 -10347166.66043  -8013417.07642  23838565.6544   23838570.6124   23838566.1424
      3445.1794       2684.5414
 -11950293.96143  -9266909.79342  23242455.2854   23242458.6444   23242454.4104
     -3488.8504      -2718.5914
  -3010379.90943  -2305476.99842  25409068.2094   25409068.9744   25409067.3714
     -3562.5834      -2776.0274
 -23481466.17643 -18227469.80942  21113801.0704   21113801.5674   21113799.9374
     -1639.1954      -1277.3044
 -14874194.53343 -11533561.33342  22392655.8874   22392657.9754   22392654.7294
      2010.9084       1566.9434
  -3797422.45843  -2926936.45742  24687640.1794   24687643.7974   24687639.9814
       990.2594        771.6254
 -17368228.98843 -13481753.50342  22459511.2964   22459512.2714   22459511.2654
     -2622.2044      -2043.2794
 05  9 20  0  3  0.0000000  0 10G28G11G 1G 3G20G18G19G14G 9G22
 -10990872.68943  -8553907.05942  23707217.8284   23707220.9244   23707217.6004
       727.0634        566.5834
 -22487817.75743 -17471415.51542  21461600.0914   21461601.5604   21461599.3894
      2190.1494       1706.6154
 -10450414.79943  -8093870.14742  23818918.7664   23818922.0894   23818918.5094
      3437.9404       2678.8954
 -11845518.59343  -9185266.66342  23262392.5394   23262396.9924   23262393.2054
     -3496.3304      -2724.3854
  -1691755.08943  -1267995.04742  25453259.8034   25453261.6744   25453258.5844
      3833.0864       2986.8244
  -2903460.20843  -2222162.92042  25429413.5904   25429416.4844   25429415.8854
     -3565.3564      -2778.2024
 -23432036.59543 -18188953.26342  21123207.1654   21123207.8284   21123206.2094
     -1656.2684      -1290.5924
 -14934262.11843 -11580367.22842  22381224.4364   22381227.3714   22381224.2334
      1993.4294       1553.3124
  -3826831.94443  -2949852.94942  24682045.6064   24682047.5294   24682045.6174
       969.5564        755.5054
 -17289405.74743 -13420332.80142  22474511.0384   22474511.7814   22474511.6454
     -2632.8584      -2051.5824
 05  9 20  0  3 30.0000000  0  9G28G11G 1G 3G20G19G14G 9G22
 -11012399.36343  -8570681.08842  23703122.1704   23703122.7574   23703121.2634
       707.7354        551.4864
 -22553359.20543 -17522486.77342  21449128.0314   21449129.5764   21449127.3704
      2178.8904       1697.8494
 -10553452.97543  -8174159.62142  23799310.9894   23799315.3794   23799311.5134
      3430.8814       2673.4414
 -11740527.44643  -9103455.39642  23282372.8624   23282376.1644   23282372.4684
     -3503.4694      -2729.9664
  -1806729.17043  -1357585.25742  25431380.4874   25431383.1204   25431380.2534
      3831.2304       2985.3774
 -23382100.40743 -18150041.96142  21132710.0654   21132710.7984   21132709.0484
     -1673.2924      -1303.8594
 -14993811.14143 -11626769.04642  22369892.5494   22369895.0884   22369892.0234
      1976.1344       1539.8494
  -3855632.07243  -2972294.62542  24676565.8554   24676567.0114   24676564.3364
       949.5204        739.8864
 -17210269.59143 -13358668.26242  22489570.1654   22489571.2414   22489570.8154
     -2643.3404      -2059.7424
 05  9 20  0  4  0.0000000  0  9G28G11G 1G 3G20G19G14G 9G22
 -11033351.33643  -8587007.29142  23699134.1214   23699136.9674   23699132.8654
       688.8564        536.7814
 -22618567.20843 -17573298.19942  21436719.4414   21436720.8704   21436718.9024
      2167.9934       1689.3404
 -10656278.17443  -8254283.14142  23779744.7404   23779749.0564   23779745.1214
      3423.7764       2667.8704
 -11635322.82643  -9021477.78842  23302392.9014   23302396.7934   23302391.8684
     -3510.4214      -2735.3994
  -1921652.18643  -1447135.68442  25409510.4914   25409517.1504   25409510.3004
      3830.0104       2984.4294
 -23331658.03643 -18110736.22842  21142308.6174   21142309.3494   21142307.4984
     -1689.7764      -1316.7184
 -15052839.08443 -11672764.82142  22358661.3384   22358661.8204   22358659.7544
      1958.8584       1526.3804
  -3883821.41943  -2994260.35842  24671200.4494   24671203.8814   24671199.5414
       929.5044        724.2854
 -17130822.00543 -13296761.05042  22504688.9234   22504689.1674   22504688.8054
     -2653.4034      -2067.6024
 05  9 20  0  4 30.0000000  0  9G28G11G 1G 3G20G19G14G 9G22
 -11053728.54243  -8602885.64742  23695256.4484   23695257.6634   23695255.1094
       669.2584        521.4944
 -22683440.08043 -17623848.48442  21424374.4724   21424375.7544   21424373.7344
      2156.5324       1680.4184
 -10758887.61243  -8334238.52342  23760219.3384   23760223.4914   23760219.5874
      3416.2674       2662.0364
 -11529906.95143  -8939335.57942  23322452.0654   23322456.8594   23322452.0564
     -3517.6354      -2741.0164
  -2036522.62943  -1536645.08542  25387653.4944   25387656.1294   25387651.3464
      3827.7504       2982.6534
 -23280710.70943 -18071037.02242  21152003.4014   21152004.4554   21152002.2694
     -1706.9934      -1330.1214
 -15111343.58643 -11718352.72742  22347527.6734   22347529.4094   22347526.8614
      1941.1144       1512.5654
  -3911398.68843  -3015749.12942  24665953.9094   24665955.9914   24665952.9594
       908.8374        708.1794
 -17051065.72643 -13234613.29842  22519866.1824   22519866.0144   22519865.6364
     -2664.0854      -2075.9124
 05  9 20  0  5  0.0000000  0  9G28G11G 1G 3G20G19G14G 9G22
 -11073529.95643  -8618315.33642  23691487.5944   23691491.3884   23691486.6734
       650.4634        506.8454
 -22747976.69243 -17674136.74542  21412093.1214   21412094.9574   21412093.1064
      2145.6744       1671.9624
 -10861278.04843  -8414023.22142  23740734.8914   23740738.8364   23740733.9004
      3409.4434       2656.7484
 -11424281.96143  -8857030.41142  23342552.3604   23342556.0484   23342552.2734
     -3524.2344      -2746.1334
  -2151338.78543  -1626112.19142  25365804.4074   25365805.9074   25365803.1244
      3826.4644       2981.6604
 -23229259.35643 -18030945.06942  21161794.3064   21161795.1874   21161793.2424
     -1723.3324      -1342.8464
 -15169322.76743 -11763531.29442  22336494.4104   22336497.5024   22336493.9274
      1923.9934       1499.2234
  -3938362.24643  -3036759.70542  24660821.6234   24660825.0914   24660822.0204
       888.8884        692.6444
 -16971003.07943 -13172226.81842  22535101.3874   22535102.4924   22535100.8894
     -2673.6784      -2083.3864
 05  9 20  0  5 30.0000000  0  9G28G11G 1G 3G20G19G14G 9G22
 -11092755.06743  -8633295.93642  23687830.4864   23687831.3734   23687829.0084
       631.6554        492.2074
 -22812175.62444 -17724161.87742  21399876.5924   21399878.0894   21399876.0234
      2134.8144       1663.4924
 -10963446.68643  -8493635.12942  23721292.4834   23721296.0644   23721290.9184
      3402.5724       2651.3394
 -11318450.12743  -8774564.04442  23362691.2694   23362694.3614   23362690.3784
     -3530.7394      -2751.2354
  -2266098.85843  -1715535.58642  25343965.1214   25343970.4264   25343964.9864
      3825.1424       2980.6304
 -23177304.97343 -17990461.14542  21171681.4614   21171681.9054   21171680.2724
     -1739.5914      -1355.5184
 -15226774.28843 -11808298.68442  22325561.4674   22325564.8574   22325561.2774
      1906.8074       1485.8344
  -3964710.79143  -3057291.03942  24655807.2704   24655810.8024   24655808.4054
       868.1464        676.4774
 -16890635.64743 -13109602.85542  22550394.9714   22550395.8984   22550394.7044
     -2683.5334      -2091.0654
 05  9 20  0  6  0.0000000  0  9G28G11G 1G 3G20G19G14G 9G22
 -11111403.97243  -8647827.54642  23684281.1904   23684283.6214   23684279.6584
       612.2684        477.1124
 -22876035.76043 -17773923.02142  21387724.0544   21387726.6084   21387723.5814
      2123.2144       1654.4584
 -11065390.81143  -8573072.10542  23701892.8094   23701897.2454   23701893.4424
      3394.5334       2645.1144
 -11212413.77543  -8691938.31842  23382869.8644   23382874.0774   23382868.2324
     -3537.6164      -2756.5814
  -2380801.28443  -1804914.06642  25322138.8784   25322142.5044   25322137.4054
      3822.7734       2978.7864
 -23124849.00843 -17949586.38142  21181663.0194   21181663.8564   21181662.3244
     -1756.6004      -1368.7784
 -15283696.12843 -11852653.33842  22314729.0934   22314732.0914   22314728.4484
      1888.8614       1471.8444
  -3990443.26943  -3077342.32142  24650910.5784   24650913.4714   24650910.8994
       847.5944        660.4714
 -16809966.21943 -13046743.56042  22565745.4074   22565745.9914   22565745.0104
     -2693.6484      -2098.9424
 05  9 20  0  6 30.0000000  0  9G28G11G 1G 3G20G19G14G 9G22
 -11129475.83343  -8661909.51642  23680842.2534   23680843.0184   23680841.6934
       592.6314        461.7544
 -22939555.45543 -17823418.88542  21375637.2404   21375638.5464   21375636.5504
      2111.4294       1645.2674
 -11167107.48043  -8652331.81842  23682536.3364   23682540.7474   23682535.9094
      3386.3954       2638.7404
 -11106174.93843  -8609154.84542  23403085.9684   23403091.1014   23403085.8144
     -3544.7804      -2762.1684
  -2495444.81943  -1894246.66242  25300323.1334   25300327.5584   25300321.5484
      3820.1374       2976.7404
 -23071892.88943 -17908321.88842  21191740.7894   21191740.9614   21191739.2644
     -1773.7874      -1382.1764
 -15340086.20143 -11896593.64442  22303998.7874   22304001.2794   22303998.1824
      1870.6024       1457.6084
  -4015558.10243  -3096912.31542  24646132.9094   24646135.2364   24646131.2594
       826.4194        643.9654
 -16728996.62943 -12983650.36842  22581153.4364   22581154.6124   22581153.1014
     -2704.2974      -2107.2524
 05  9 20  0  7  0.0000000  0  9G28G11G 1G 3G20G19G14G 9G22
 -11146969.42743  -8675540.90442  23677512.7874   23677514.3024   23677511.8504
       573.3794        446.7704
 -23002733.44243 -17872648.47542  21363614.7864   21363616.3834   21363614.1194
      2100.1464       1636.4694
 -11268593.59343  -8731411.87642  23663225.6654   23663229.1394   23663224.2274
      3378.8724       2632.8904
 -10999736.01843  -8526215.45242  23423341.4104   23423344.5084   23423340.2774
     -3551.3244      -2767.2814
  -2610027.70143  -1983531.99342  25278517.8304   25278522.1634   25278516.3674
      3818.3264       2975.3124
 -23018437.15443 -17866668.07642  21201912.9984   21201913.4414   21201911.8964
     -1790.2754      -1395.0244
 -15395942.39443 -11940117.92742  22293370.0724   22293372.0574   22293369.4224
      1852.9814       1443.8604
  -4040054.19043  -3116000.17342  24641470.4374   24641470.8014   24641469.3174
       805.7254        627.8374
 -16647728.69643 -12920324.70942  22596617.8574   22596618.5834   22596617.6114
     -2713.9254      -2114.7714
 05  9 20  0  7 30.0000000  0  9G28G11G 1G 3G20G19G14G 9G22
 -11163884.82743  -8688721.73942  23674294.0064   23674295.0654   23674294.0934
       554.4414        432.0374
 -23065568.23243 -17921610.64742  21351657.7784   21351659.1514   21351657.4104
      2089.0014       1627.7984
 -11369846.32143  -8810310.08542  23643956.9014   23643962.3474   23643955.9584
      3371.4304       2627.1104
 -10893099.09543  -8443121.75842  23443632.9614   23443636.3194   23443632.5204
     -3557.5584      -2772.1264
  -2724548.31843  -2072768.80542  25256726.1604   25256728.4414   25256723.6484
      3816.4634       2973.8764
 -22964483.59943 -17824626.36242  21212180.0644   21212180.2914   21212178.8554
     -1806.5594      -1407.6984
 -15451262.64343 -11983224.58842  22282842.1874   22282844.8934   22282841.8284
      1835.3024       1430.1144
  -4063930.26943  -3134604.92242  24636926.7414   24636930.6534   24636926.4254
       785.5614        612.1254
 -16566164.98843 -12856768.57542  22612139.7864   22612139.7854   22612139.3094
     -2723.3874      -2122.1124
 05  9 20  0  8  0.0000000  0  9G28G11G 1G 3G20G19G14G 9G22
 -11180221.59043  -8701451.68342  23671185.5044   23671188.3624   23671185.0254
       535.3834        417.1794
 -23128058.71243 -17970304.52242  21339766.1374   21339767.7294   21339765.5504
      2077.5634       1618.8814
 -11470862.58043  -8889024.04542  23624734.4814   23624739.6584   23624733.8744
      3363.5524       2620.9654
 -10786266.45643  -8359875.54642  23463961.9364   23463965.6874   23463961.2574
     -3563.9754      -2777.1084
  -2839005.03443  -2161955.82742  25234942.6194   25234949.4054   25234944.1084
      3814.9904       2972.7294
 -22910032.84143 -17782197.21642  21222541.6914   21222542.2234   21222540.5954
     -1822.9314      -1420.4654
 -15506044.86843 -12025912.02242  22272418.5114   22272420.0464   22272418.3444
      1817.4284       1416.1674
  -4087185.05443  -3152725.54142  24632500.8994   24632504.0434   24632502.1094
       764.9864        596.0954
 -16484307.46543 -12792983.49042  22627716.5444   22627717.3124   22627716.0944
     -2733.0544      -2129.6464
 05  9 20  0  9  0.0000000  0 10G28G11G 1G 3G20G19G14G 9G22G31
 -11211156.80443  -8725557.05742  23665300.2684   23665301.0224   23665299.3844
       495.9584        386.4414
 -23252000.50843 -18066882.53542  21316180.5514   21316181.9754   21316180.1514
      2053.7804       1600.3454
 -11672174.07443  -9045890.09142  23586425.7964   23586429.0754   23586426.9654
      3346.7924       2607.8944
 -10572023.18043  -8192932.79642  23504732.2854   23504735.7444   23504731.7434
     -3577.4414      -2787.6334
  -3067720.23443  -2340175.42642  25191421.4014   25191426.8244   25191419.6594
      3809.0414       2968.0844
 -22799645.78443 -17696181.35142  21243547.3354   21243548.1834   21243545.9984
     -1856.5304      -1446.6464
 -15613986.74343 -12110022.53042  22251877.0754   22251879.2984   22251876.7584
      1780.4974       1387.3914
  -4131825.57043  -3187510.34942  24624007.8234   24624008.3954   24624007.2614
       722.8354        563.2444
 -16319718.97043 -12664732.72142  22659036.8884   22659036.9174   22659036.4984
     -2753.1014      -2145.2894
   -130050.59343    -95674.62242  24400154.4504   24400157.9254   24400154.7474
      3552.9314       2768.5184
 05  9 20  0  9 30.0000000  0 10G28G11G 1G 3G20G19G14G 9G22G31
 -11225754.47743  -8736931.85342  23662521.2414   23662521.9254   23662520.6164
       476.7984        371.5094
 -23313449.28844 -18114764.69642  21304487.4194   21304489.0374   21304487.1644
      2042.3954       1591.4704
 -11772463.48543  -9124037.64842  23567342.2264   23567345.9074   23567341.9744
      3338.6494       2601.5364
 -10464616.83443  -8109239.54542  23525170.3734   23525174.5164   23525170.3064
     -3583.4114      -2792.2664
  -3181975.62143  -2429205.59742  25169679.2384   25169682.7014   25169677.0604
      3807.6994       2967.0264
 -22743711.93443 -17652596.54142  21254190.8884   21254192.2704   21254190.0664
     -1872.7454      -1459.2784
 -15667142.98843 -12151442.96542  22241761.7064   22241764.1414   22241760.9184
      1762.6324       1373.4834
  -4153209.15243  -3204172.87742  24619937.2634   24619941.0374   24619936.6774
       702.3584        547.2844
 -16236991.58843 -12600269.82342  22674778.7964   22674779.2554   22674778.5364
     -2762.4364      -2152.5584
   -236531.99743   -178647.17942  24379891.2084   24379893.7954   24379890.9084
      3545.3894       2762.6404
 05  9 20  0 10  0.0000000  0 10G28G11G 1G 3G20G19G14G 9G22G31
 -11239772.11743  -8747854.71542  23659853.6914   23659855.9794   23659854.3264
       458.8704        357.6054
 -23374548.42843 -18162374.40642  21292860.5364   21292862.5464   21292860.2854
      2032.0544       1583.4174
 -11872504.91643  -9201991.99142  23548304.8974   23548308.1464   23548304.0714
      3331.8754       2596.2344
 -10357023.90943  -8025400.91442  23545644.5334   23545648.7534   23545643.5214
     -3588.4024      -2796.1844
  -3296160.30943  -2518180.59042  25147951.7924   25147951.9224   25147949.5314
      3806.0374       2965.7344
 -22687286.27843 -17608628.51542  21264928.5094   21264929.7104   21264927.6884
     -1887.7784      -1470.9954
 -15719753.33343 -12192438.02042  22231750.3124   22231753.2564   22231749.7054
      1745.8344       1360.4124
  -4173966.79343  -3220347.67942  24615987.9344   24615990.5404   24615987.0524
       682.7984        532.0544
 -16153979.70543 -12535585.23842  22690576.0804   22690576.5534   22690575.7974
     -2770.5064      -2158.8134
   -342778.82643   -261436.93842  24359673.1724   24359676.0434   24359672.4414
      3538.9354       2757.6144
 05  9 20  0 10 30.0000000  0 10G28G11G 1G 3G20G19G14G 9G22G31
 -11253208.99143  -8758325.00142  23657297.1064   23657299.1164   23657295.4204
       438.7914        341.9264
 -23435296.19944 -18209710.33042  21281301.0764   21281302.4024   21281300.4164
      2019.6994       1573.7904
 -11972295.27643  -9279750.68842  23529314.6654   23529318.2344   23529315.8464
      3322.7984       2589.2074
 -10249246.33743  -7941418.41342  23566153.0694   23566157.1894   23566153.8484
     -3594.9774      -2801.2954
  -3410273.31343  -2607099.79242  25126234.3714   25126238.9034   25126234.1784
      3802.7704       2963.1954
 -22630369.71443 -17564277.95942  21275759.8874   21275760.2324   21275758.8064
     -1904.7194      -1484.1864
 -15771815.40143 -12233005.85242  22221843.7514   22221845.4764   22221843.0474
      1726.8214       1345.5744
  -4194097.25943  -3236033.76942  24612156.3594   24612160.4144   24612156.0634
       661.1074        515.1454
 -16070684.49643 -12470679.89642  22706425.8654   22706426.7884   22706426.2084
     -2780.6144      -2166.7014
   -448787.91143   -344041.39142  24339499.7744   24339503.5854   24339500.3694
      3530.4244       2750.9844
 05  9 20  0 11  0.0000000  0 10G28G11G 1G 3G20G19G14G 9G22G31
 -11266064.61543  -8768342.37842  23654849.8164   23654853.1794   23654849.2294
       418.4954        326.0994
 -23495691.54643 -18256771.62942  21269808.0424   21269809.5474   21269807.4864
      2006.8884       1563.8044
 -12071831.69943  -9357311.51442  23510373.2694   23510377.4624   23510371.7144
      3313.3044       2581.8114
 -10141286.46443  -7857293.86242  23586698.8284   23586702.5234   23586697.2244
     -3602.1334      -2806.8694
  -3524313.00043  -2695961.80542  25104534.1684   25104538.4844   25104534.8934
      3799.6154       2960.7394
 -22572963.39443 -17519545.77442  21286684.2774   21286684.3524   21286682.6534
     -1922.0844      -1497.7304
 -15823327.77843 -12273145.35142  22212041.1904   22212043.0274   22212040.8144
      1707.5274       1330.5354
  -4213599.49043  -3251230.32042  24608446.2694   24608449.3564   24608447.6704
       639.3804        498.2154
 -15987107.80243 -12405555.19342  22722330.3834   22722330.4514   22722330.1384
     -2790.9524      -2174.7634
   -554557.10443   -426458.94542  24319373.8944   24319376.6904   24319373.8234
      3521.2504       2743.8334
 05  9 20  0 11 30.0000000  0 10G28G11G 1G 3G20G19G14G 9G22G31
 -11278338.70343  -8777906.61842  23652514.4844   23652516.1964   23652513.8754
       399.5794        311.3434
 -23555732.75843 -18303556.98442  21258382.0894   21258384.2144   21258381.8544
      1995.3954       1554.8554
 -12171111.46043  -9434672.34342  23491481.6034   23491484.4864   23491481.2904
      3305.0194       2575.3644
 -10033146.69543  -7773029.11342  23607276.6134   23607280.2584   23607276.1784
     -3607.8534      -2811.2784
  -3638277.35743  -2784765.18342  25082848.3114   25082850.6694   25082846.7994
      3797.2914       2958.9384
 -22515069.18543 -17474433.41942  21297700.6674   21297701.2424   21297699.5574
     -1938.0004      -1510.1264
 -15874288.40743 -12312854.91842  22202344.4004   22202345.3494   22202343.1414
      1689.3374       1316.3794
  -4232472.73443  -3265936.75942  24604854.0954   24604856.9974   24604853.9504
       618.5364        481.9774
 -15903251.87743 -12340212.91342  22738287.9604   22738287.9344   22738287.6034
     -2799.9574      -2181.7694
   -660083.91743   -508687.64242  24299293.4344   24299295.5044   24299291.4364
      3513.4964       2737.7954
 05  9 20  0 12  0.0000000  0 10G28G11G 1G 3G20G19G14G 9G22G31
 -11290031.56743  -8787017.93942  23650289.5814   23650291.2334   23650288.3684
       380.4144        296.4174
 -23615418.78043 -18350065.56742  21247024.8984   21247026.0654   21247024.1134
      1983.8684       1545.8844
 -12270131.68143  -9511830.92242  23472638.0624   23472642.2504   23472638.2144
      3296.6804       2568.8554
  -9924829.03943  -7688625.79042  23627887.5214   23627891.7494   23627888.1834
     -3613.3014      -2815.5254
  -3752165.14843  -2873508.85042  25061175.0024   25061180.1814   25061173.8534
      3795.3414       2957.4134
 -22456688.14443 -17428941.71642  21308809.8194   21308811.0024   21308808.6254
     -1953.7994      -1522.4184
 -15924695.51143 -12352133.15742  22192751.6054   22192753.7404   22192750.7784
      1671.2524       1302.2974
  -4250715.67543  -3280152.04242  24601382.2794   24601385.2144   24601383.1104
       597.9334        465.9244
 -15819119.40643 -12274655.13542  22754297.8524   22754298.4634   22754297.5134
     -2808.8194      -2188.6864
   -765365.61043   -590725.30842  24279257.3524   24279260.0144   24279256.5884
      3505.4864       2731.5454
 05  9 20  0 12 30.0000000  0 10G28G11G 1G 3G20G19G14G 9G22G31
 -11301142.13543  -8795675.51942  23648175.0304   23648177.4974   23648174.3684
       360.8234        281.1604
 -23674748.27444 -18396296.33842  21235734.7714   21235736.1994   21235734.3184
      1971.7364       1536.4154
 -12368889.32943  -9588784.91242  23453846.0234   23453849.2954   23453844.6274
      3287.5064       2561.6544
  -9816335.95743  -7604085.72342  23648533.8734   23648537.2384   23648532.3454
     -3619.3694      -2820.2904
  -3865974.46943  -2962191.41642  25039518.6544   25039522.4644   25039517.8664
      3792.3304       2955.0694
 -22397822.07643 -17383072.06342  21320011.8104   21320012.9634   21320010.8474
     -1970.1014      -1535.1464
 -15974547.08543 -12390978.52642  22183265.4834   22183267.2344   22183264.5914
      1652.5844       1287.7174
  -4268327.45443  -3293875.50442  24598030.3624   24598034.0194   24598030.5294
       576.7454        449.4114
 -15734711.32043 -12208882.61342  22770359.4284   22770360.8564   22770359.3714
     -2818.1114      -2195.9234
   -870399.38743   -672569.82642  24259268.9814   24259273.8454   24259269.6154
      3496.8794       2724.8394
 05  9 20  0 13  0.0000000  0 10G28G11G 1G 3G20G19G14G 9G22G31
 -11311670.35943  -8803879.33642  23646171.7914   23646173.1894   23646171.3564
       340.9454        265.6904
 -23733719.66444 -18442248.06342  21224512.6644   21224514.3364   21224512.0744
      1959.6914       1527.0324
 -12467381.49643  -9665532.04042  23435103.4564   23435106.7694   23435102.1544
      3278.6184       2554.7624
  -9707669.37243  -7519410.47742  23669212.0234   23669215.8134   23669213.5024
     -3625.0964      -2824.7454
  -3979703.75243  -3050811.60242  25017877.7594   25017880.1534   25017875.8084
      3789.5904       2952.9294
 -22338471.87343 -17336825.16142  21331305.9284   21331306.3214   21331304.7494
     -1986.3854      -1547.8354
 -16023841.29043 -12429389.57542  22173884.8704   22173886.5194   22173883.4694
      1633.7654       1273.0544
  -4285307.05243  -3307106.38642  24594800.2774   24594803.7654   24594799.5904
       555.5714        432.9124
 -15650031.34543 -12142898.22742  22786473.9624   22786474.8364   22786473.6854
     -2827.2474      -2203.0374
   -975182.58543   -754219.06942  24239330.8224   24239332.4754   24239330.0254
      3488.5924       2718.3774
 05  9 20  0 13 30.0000000  0 10G28G11G 1G 3G20G19G14G 9G22G31
 -11321616.31443  -8811629.44242  23644278.7624   23644282.3224   23644279.1294
       322.6394        251.4354
 -23792331.90244 -18487919.93042  21213358.7614   21213360.9584   21213358.6294
      1948.3064       1518.1624
 -12565605.49043  -9742070.17842  23416412.0824   23416415.9264   23416411.6684
      3270.2844       2548.2724
  -9598831.87443  -7434602.05742  23689922.9584   23689926.5114   23689923.1214
     -3629.9964      -2828.5434
  -4093351.60543  -3139368.37642  24996251.8084   24996255.5554   24996250.8144
      3787.1684       2951.0354
 -22278639.14843 -17290202.27342  21342691.6204   21342692.7724   21342690.5634
     -2001.8474      -1559.8764
 -16072576.21443 -12467364.82142  22164609.8904   22164612.9954   22164610.0724
      1615.6924       1258.9804
  -4301653.55743  -3319843.94042  24591688.5374   24591692.0044   24591688.1324
       535.1574        417.0084
 -15565080.77943 -12076702.97442  22802638.6534   22802639.6474   22802638.8554
     -2835.6734      -2209.6004
  -1079712.40043   -835670.88542  24219439.8464   24219442.1014   24219439.5054
      3480.5144       2712.0864
 05  9 20  0 14  0.0000000  0 10G28G11G 1G 3G20G19G14G 9G22G31
 -11330979.92243  -8818925.74942  23642497.3774   23642498.2924   23642495.5634
       302.4094        235.6084
 -23850583.56344 -18533310.83042  21202274.2674   21202275.7384   21202273.5274
      1935.7454       1508.3694
 -12663558.34843  -9818397.04342  23397773.0734   23397775.3314   23397772.1974
      3260.6874       2540.8004
  -9489825.55443  -7349662.10342  23710666.3474   23710670.2824   23710666.2654
     -3636.3544      -2833.5394
  -4206916.37743  -3227860.33842  24974639.9784   24974645.2424   24974638.7014
      3784.2214       2948.7464
 -22218325.00443 -17243204.25142  21354168.9244   21354170.0634   21354168.0824
     -2018.5524      -1572.9054
 -16120750.17143 -12504902.95342  22155442.8624   22155445.9924   22155442.1704
      1596.3944       1243.9414
  -4317366.21643  -3332087.55842  24588700.1444   24588701.1314   24588699.4624
       513.1024        399.8254
 -15479861.14743 -12010298.05742  22818855.7794   22818856.2134   22818855.4744
     -2845.1274      -2216.9884
  -1183986.21143   -916923.19342  24199596.9374   24199600.0524   24199596.9914
      3471.5224       2705.0884
 05  9 20  0 14 30.0000000  0 10G28G11G 1G 3G20G19G14G 9G22G31
 -11339760.93143  -8825768.09142  23640826.3504   23640827.3874   23640824.4424
       283.1484        220.6164
 -23908473.46243 -18578419.83642  21191257.5424   21191259.5904   21191257.4254
      1923.6934       1498.9724
 -12761237.20943  -9894510.42342  23379183.9664   23379187.3844   23379184.4724
      3251.4594       2533.5974
  -9380652.59943  -7264592.27442  23731440.9654   23731446.0354   23731441.6224
     -3641.8064      -2837.7664
  -4320396.57543  -3316286.44442  24953046.2954   24953049.1414   24953044.5604
      3781.3694       2946.5164
 -22157530.87843 -17195832.21742  21365737.9944   21365738.4654   21365736.9834
     -2034.2394      -1585.1164
 -16168361.39543 -12542002.58842  22146382.5384   22146386.1114   22146382.8634
      1577.7484       1229.4114
  -4332443.96643  -3343836.46742  24585831.1774   24585833.1864   24585830.8674
       491.8394        383.2464
 -15394375.29743 -11943685.70942  22835123.5464   22835124.2124   22835123.1454
     -2853.8534      -2223.7914
  -1288001.20643   -997973.84842  24179804.4514   24179807.7064   24179803.9934
      3462.8464       2698.3204
 05  9 20  0 15  0.0000000  0 10G28G11G 1G 3G20G19G14G 9G22G31
 -11347959.09543  -8832156.28642  23639267.0174   23639267.9514   23639265.9544
       264.2404        205.9144
 -23966000.05143 -18623245.74542  21180310.7424   21180312.8124   21180310.7904
      1912.0984       1489.9514
 -12858639.06243  -9970407.93242  23360648.7394   23360652.3314   23360648.9704
      3242.7014       2526.7354
  -9271315.24543  -7179394.35442  23752248.4804   23752251.8504   23752248.5564
     -3646.6104      -2841.5134
  -4433790.50943  -3404645.31842  24931465.8884   24931471.7114   24931466.0764
      3778.9194       2944.6054
 -22096258.59743 -17148087.59142  21377398.2174   21377398.5894   21377396.9614
     -2049.7294      -1597.1804
 -16215408.15443 -12578662.38942  22137431.2364   22137432.9254   22137429.8124
      1559.4284       1215.1404
  -4346886.20043  -3355090.14342  24583080.4874   24583085.6234   24583080.6684
       471.5034        367.4104
 -15308624.64643 -11876867.01842  22851441.5794   22851442.0564   22851441.6254
     -2862.1374      -2230.2314
  -1391754.82143  -1078820.82142  24160059.6324   24160062.8624   24160059.6634
      3454.8244       2692.0634
 05  9 20  0 15 30.0000000  0 10G28G11G 1G 3G20G19G14G 9G22G31
 -11355573.99943  -8838089.96442  23637817.2894   23637818.8844   23637815.5714
       244.5264        190.5474
 -24023161.92344 -18667787.46142  21169433.8044   21169435.1744   21169433.1374
      1899.8194       1480.3714
 -12955760.87543 -10046087.24042  23342167.6024   23342171.5224   23342166.8124
      3233.1284       2519.3214
  -9161815.70843  -7094070.06042  23773085.4544   23773088.1364   23773085.3194
     -3652.2374      -2845.9154
  -4547096.13743  -3492935.34642  24909906.3944   24909909.8754   24909905.5954
      3775.8934       2942.2454
 -22034509.19343 -17099971.18842  21389148.1684   21389148.9364   21389147.2594
     -2065.8034      -1609.7254
 -16261888.43143 -12614880.77042  22128585.7364   22128587.7074   22128584.7014
      1540.2654       1200.1834
  -4360691.94043  -3365847.85042  24580454.1334   24580458.0134   24580453.8744
       450.2784        350.8634
 -15222611.74843 -11809843.99142  22867809.3914   22867809.6274   22867808.8224
     -2870.9734      -2237.1224
  -1495244.27343  -1159461.93542  24140366.9564   24140368.9954   24140365.8014
      3445.6974       2684.9394
 05  9 20  0 16  0.0000000  0 10G28G11G 1G 3G20G19G14G 9G22G31
 -11362606.20143  -8843569.61042  23636478.6404   23636480.6454   23636477.6934
       225.5004        175.7034
 -24079958.03744 -18712044.17442  21158625.7594   21158627.2004   21158625.3394
      1887.8354       1471.0634
 -13052600.11243 -10121546.36142  23323740.0624   23323743.2454   23323739.1574
      3223.9894       2512.2304
  -9052156.43743  -7008621.29742  23793952.4134   23793956.7304   23793952.6904
     -3657.2874      -2849.8334
  -4660312.49643  -3581155.83442  24888361.0524   24888363.6054   24888359.3434
      3773.2674       2940.1974
 -21972284.12143 -17051484.13342  21400989.0354   21400990.2604   21400987.9434
     -2081.3034      -1621.7784
 -16307800.87643 -12650656.68442  22119848.5064   22119850.6004   22119848.0654
      1521.7524       1185.7914
  -4373860.76743  -3376109.30342  24577950.0454   24577951.5334   24577950.0724
       429.0534        334.3294
 -15136338.53143 -11742618.10942  22884226.3254   22884226.4054   22884225.4794
     -2879.3034      -2243.5864
  -1598467.01643  -1239895.24042  24120723.3234   24120725.9264   24120723.5434
      3436.8264       2678.0434
 05  9 20  0 16 30.0000000  0 10G28G11G 1G 3G20G19G14G 9G22G31
 -11369054.76143  -8848594.45842  23635252.1934   23635253.6344   23635252.2654
       205.1234        159.8444
 -24136386.57644 -18756014.45942  21147887.4394   21147889.2264   21147887.0314
      1874.6224       1460.7344
 -13149153.64143 -10196782.84142  23305364.8924   23305369.7924   23305365.4084
      3213.4214       2503.9784
  -8942339.37443  -6923049.59142  23814849.8944   23814854.8084   23814849.6564
     -3663.3244      -2854.5514
  -4773437.47143  -3669305.12342  24866833.4284   24866836.8924   24866832.1054
      3769.0344       2936.9134
 -21909584.18243 -17002627.04842  21412920.7724   21412921.4614   21412919.2904
     -2098.1054      -1634.8934
 -16353143.21043 -12685988.35542  22111220.4874   22111222.3174   22111220.0834
      1501.7554       1170.2044
  -4386391.64943  -3385873.61642  24575563.8144   24575567.1684   24575563.8724
       407.0844        317.2044
 -15049806.97943 -11675190.91942  22900693.6504   22900693.6594   22900693.0254
     -2888.8314      -2251.0404
  -1701420.06043  -1320118.42542  24101131.4644   24101134.7024   24101131.0444
      3427.0774       2670.4584
 05  9 20  0 17  0.0000000  0 10G28G11G 1G 3G20G19G14G 9G22G31
 -11374920.38443  -8853165.06342  23634135.3634   23634138.2034   23634134.7354
       186.2874        145.1824
 -24192446.87744 -18799697.80742  21137219.1204   21137221.1774   21137219.1324
      1862.8794       1451.5884
 -13245418.71543 -10271794.54642  23287047.6094   23287051.5624   23287046.7044
      3204.3484       2496.8834
  -8832367.12943  -6837356.92042  23835776.7564   23835781.0194   23835776.1554
     -3667.8674      -2858.1164
  -4886469.75343  -3757382.20142  24845324.4204   24845327.3534   24845323.3064
      3766.7234       2935.1134
 -21846412.05843 -16953402.02942  21424941.8844   21424942.7374   21424940.8274
     -2113.2014      -1646.6564
 -16397914.35843 -12720874.93942  22102700.6204   22102703.0294   22102700.1504
      1483.2334       1155.7594
  -4398283.91143  -3395140.34742  24573302.1344   24573304.1324   24573301.8854
       385.9674        300.7504
 -14963020.27143 -11607564.90842  22917208.2854   22917208.3134   22917208.3064
     -2896.6274      -2257.1194
  -1804100.83143  -1400129.42442  24081593.9954   24081595.3544   24081593.3534
      3418.5354       2663.7954
 05  9 20  0 17 30.0000000  0 10G28G11G 1G 3G20G19G14G 9G22G31
 -11380202.78543  -8857281.22142  23633130.3284   23633132.3654   23633129.9724
       166.5824        129.8114
 -24248137.37244 -18843092.99142  21126622.1564   21126623.8814   21126621.9174
      1850.3794       1441.8534
 -13341392.33843 -10346579.16742  23268784.7534   23268785.7584   23268783.9664
      3194.3724       2489.1544
  -8722241.74043  -6751544.96742  23856732.8214   23856737.1644   23856733.5374
     -3673.1984      -2862.2144
  -4999407.55043  -3845385.59942  24823833.3954   24823835.9454   24823831.6264
      3763.0934       2932.2794
 -21782768.88043 -16903809.95542  21437052.7254   21437053.2534   21437051.7684
     -2129.1014      -1659.0434
 -16442112.38843 -12755314.95542  22094289.9954   22094292.4004   22094289.7644
      1463.9134       1140.7054
  -4409536.59143  -3403908.68842  24571159.6124   24571163.4174   24571159.0084
       364.6544        284.1414
 -14875978.20943 -11539739.92642  22933771.0674   22933772.3984   22933771.3434
     -2905.4514      -2263.9834
  -1906506.53243  -1479926.07942  24062105.3414   24062108.1624   24062105.1044
      3408.9274       2656.3024
 05  9 20  0 18  0.0000000  0 10G28G11G 1G 3G20G19G14G 9G22G31
 -11384901.86043  -8860942.83342  23632236.3184   23632238.1054   23632235.8984
       146.6604        114.2824
 -24303456.71944 -18886198.97842  21116095.7254   21116097.1144   21116094.8794
      1837.5434       1431.8484
 -13437071.88743 -10421134.62842  23250576.6754   23250580.4854   23250576.1264
      3184.2324       2481.2164
  -8611965.74243  -6665615.63342  23877718.5264   23877722.7874   23877718.3534
     -3678.7064      -2866.5064
  -5112249.54643  -3933314.42342  24802358.7404   24802362.7154   24802358.3024
      3759.6944       2929.6314
 -21718655.79343 -16853851.72242  21449253.1844   21449253.7154   21449252.2084
     -2145.2864      -1671.6474
 -16485735.56543 -12789307.02142  22085989.2944   22085990.9314   22085988.1974
      1444.2524       1125.3964
  -4420149.05443  -3412178.17142  24569140.5424   24569143.0734   24569140.5444
       342.7994        267.1144
 -14788684.85243 -11471719.13842  22950382.8574   22950383.6064   22950382.4664
     -2914.1134      -2270.7284
  -2008634.71743  -1559506.46642  24042671.4164   24042674.4194   24042670.6604
      3399.3064       2648.8074
 05  9 20  0 18 30.0000000  0 10G28G11G 1G 3G20G19G14G 9G22G31
 -11389017.54843  -8864149.86542  23631453.4874   23631454.6074   23631451.6444
       127.4284         99.3074
 -24358403.33644 -18929014.52042  21105638.8234   21105640.8394   21105638.8404
      1825.3544       1422.3524
 -13532454.37243 -10495458.60542  23232426.4134   23232430.7464   23232425.1594
      3174.3354       2473.5124
  -8501541.03543  -6579570.43942  23898731.9134   23898735.6124   23898731.7024
     -3683.4084      -2870.1994
  -5224993.72143  -4021166.94442  24780906.1634   24780909.6204   24780905.5194
      3756.4104       2927.0694
 -21654074.15943 -16803528.38442  21461542.9274   21461543.3204   21461541.7544
     -2160.5844      -1683.5694
 -16528782.35843 -12822849.96542  22077797.0944   22077799.6204   22077796.8884
      1425.3704       1110.6764
  -4430120.42443  -3419948.05042  24567243.9184   24567245.7184   24567243.4394
       321.6044        250.5974
 -14701142.04643 -11403503.96442  22967041.8174   22967041.4874   22967040.9894
     -2922.2494      -2277.0654
  -2110482.55643  -1638868.43842  24023292.2274   24023293.5184   24023290.0854
      3390.1884       2641.7004
 05  9 20  0 19  0.0000000  0 10G28G11G 1G 3G20G19G14G 9G22G31
 -11392550.38043  -8866902.72242  23630781.0444   23630782.6474   23630781.0484
       107.8174         84.0354
 -24412976.26344 -18971538.87842  21095254.3504   21095255.8834   21095253.9114
      1812.7604       1412.5264
 -13627536.85943 -10569548.80842  23214332.3384   23214336.3994   23214331.4694
      3164.2954       2465.6894
  -8390969.66843  -6493410.94442  23919773.3314   23919774.9474   23919771.7244
     -3688.3554      -2874.0694
  -5337638.94743  -4108942.40042  24759468.9124   24759472.9794   24759468.9654
      3752.9314       2924.3664
 -21589025.99643 -16752841.52042  21473921.5994   21473921.6474   21473920.1284
     -2176.2304      -1695.7774
 -16571250.92443 -12855942.33242  22069715.9724   22069718.1194   22069714.7854
      1405.7874       1095.4064
  -4439450.36643  -3427218.17542  24565467.5614   24565470.3404   24565466.7324
       300.2494        233.9514
 -14613351.16743 -11335095.48242  22983747.6314   22983748.3374   22983747.6004
     -2930.5324      -2283.5504
  -2212047.26843  -1718009.77442  24003962.6124   24003966.8764   24003962.2454
      3380.4424       2634.1104
 05  9 20  0 19 30.0000000  0 10G28G11G 1G 3G20G19G14G 9G22G31
 -11395500.60343  -8869201.61242  23630219.9054   23630221.9814   23630220.2434
        88.5404         68.9874
 -24467174.13644 -19013770.97942  21084940.6844   21084942.2934   21084940.4164
      1800.2894       1402.8254
 -13722316.60643 -10643403.13242  23196297.4104   23196299.9304   23196296.8154
      3154.0534       2457.6784
  -8280254.17843  -6407139.15942  23940840.8494   23940843.2534   23940839.8024
     -3692.9384      -2877.6234
  -5450183.64543  -4196639.49542  24738051.9444   24738057.0684   24738051.7924
      3749.9914       2922.0664
 -21523512.99643 -16701792.44642  21486387.9854   21486388.3584   21486386.8494
     -2191.5484      -1707.7104
 -16613140.11843 -12888583.24542  22061744.9514   22061746.6884   22061744.1824
      1386.6414       1080.4964
  -4448138.41843  -3433988.06642  24563814.5794   24563817.4754   24563814.9614
       278.7234        217.1834
 -14525314.20343 -11266495.24542  23000500.4114   23000500.7954   23000499.9234
     -2938.7154      -2289.9094
  -2313326.12243  -1796928.36042  23984690.8874   23984693.3454   23984689.8354
      3370.9824       2626.7454
 05  9 20  0 20  0.0000000  0 10G28G11G 1G 3G20G19G14G 9G22G31
 -11397867.59543  -8871046.01942  23629770.0854   23629771.3334   23629768.8204
        69.3884         54.0864
 -24520995.75744 -19055709.90142  21074698.7924   21074700.5284   21074698.3964
      1787.7634       1393.0784
 -13816790.89443 -10717019.43542  23178317.5114   23178321.8104   23178318.0414
      3144.3004       2450.1144
  -8169396.77043  -6320756.75642  23961936.3044   23961940.3194   23961935.7034
     -3697.2224      -2880.9494
  -5562625.81443  -4284256.70042  24716655.3474   24716660.9504   24716655.1524
      3746.3844       2919.2614
 -21457536.44943 -16650382.15842  21498942.7974   21498943.0624   21498941.6484
     -2206.5194      -1719.3604
 -16654448.49943 -12920771.57742  22053884.3464   22053886.0864   22053882.9344
      1367.4494       1065.5554
  -4456184.07243  -3440257.46042  24562283.7484   24562285.5954   24562283.0144
       257.7164        200.8204
 -14437033.63643 -11197705.19942  23017299.7704   23017300.6684   23017299.7734
     -2946.5554      -2296.0164
  -2414316.49543  -1875622.15842  23965472.0294   23965475.0574   23965471.8704
      3361.5734       2619.4274
 05  9 20  0 20 30.0000000  0 10G28G11G 1G 3G20G19G14G 9G22G31
 -11399651.45543  -8872436.04842  23629429.2054   23629431.8294   23629429.9824
        49.2364         38.3454
 -24574439.80744 -19097354.61242  21064528.8744   21064530.8744   21064528.2494
      1775.0974       1383.2044
 -13910956.68743 -10790395.35442  23160400.0804   23160402.6204   23160399.1894
      3133.7214       2441.8754
  -8058399.81343  -6234265.65342  23983058.7424   23983062.7034   23983058.4924
     -3702.1504      -2884.7924
  -5674964.11543  -4371792.99142  24695278.6904   24695282.4114   24695277.9844
      3743.1664       2916.7484
 -21391097.59743 -16598611.63642  21511585.8384   21511586.0454   21511584.4234
     -2222.3254      -1731.6724
 -16695173.97243 -12952505.69142  22046133.5084   22046136.9684   22046133.0014
      1347.7914       1050.2214
  -4463586.57243  -3446025.62642  24560874.4354   24560877.4984   24560873.5814
       236.3164        184.1364
 -14348511.55543 -11128726.95742  23034144.9314   23034145.2894   23034144.7874
     -2954.5074      -2302.2084
  -2515015.44643  -1954088.89542  23946309.6794   23946312.7884   23946309.4064
      3351.5164       2611.5804
 05  9 20  0 21  0.0000000  0 10G28G11G 1G 3G20G19G14G 9G22G31
 -11400853.26543  -8873372.53642  23629201.6114   23629202.6704   23629199.6634
        30.2054         23.5114
 -24627505.39244 -19138704.41642  21054430.5504   21054432.1464   21054430.4244
      1762.4534       1373.3294
 -14004811.37143 -10863528.84142  23142538.7714   23142542.6984   23142538.9494
      3123.2774       2433.7134
  -7947265.61843  -6147667.60542  24004206.6054   24004210.1354   24004204.6734
     -3706.8574      -2888.4644
  -5787197.01643  -4459247.12742  24673922.4454   24673925.4824   24673919.8244
      3739.2464       2913.6864
 -21324198.51843 -16546482.50442  21524316.0564   21524316.5454   21524314.9464
     -2237.6704      -1743.6564
 -16735315.61243 -12983784.87742  22038495.4004   22038497.4344   22038494.7744
      1328.2984       1035.0294
  -4470345.74343  -3451292.50542  24559589.7404   24559592.9234   24559589.4754
       214.6914        167.3004
 -14259750.40543 -11059562.41542  23051035.1424   23051035.8734   23051035.4604
     -2962.7194      -2308.6164
  -2615420.66643  -2032326.71342  23927202.6184   23927207.7534   23927203.4944
      3341.7974       2603.9864
 05  9 20  0 21 30.0000000  0 10G28G11G 1G 3G20G19G14G 9G22G31
 -11401472.05443  -8873854.70242  23629082.4324   23629084.1924   23629082.1804
        11.1844          8.7204
 -24680190.49444 -19179757.74142  21044405.1764   21044406.8724   21044404.8004
      1749.9704       1363.6214
 -14098351.81743 -10936417.45842  23124739.2804   23124742.9534   23124738.7184
      3112.9384       2425.6504
  -7835996.16243  -6060964.16342  24025380.2674   24025384.6534   24025380.3054
     -3711.1194      -2891.7814
  -5899322.75543  -4546617.75742  24652583.4634   24652588.2774   24652583.9554
      3736.6254       2911.6664
 -21256840.63343 -16493995.85242  21537133.6094   21537134.7754   21537132.6554
     -2252.7504      -1755.3874
 -16774871.50643 -13014607.62942  22030967.9594   22030970.2244   22030967.2614
      1308.9144       1019.9304
  -4476460.75143  -3456057.47942  24558426.0314   24558426.6544   24558424.7334
       193.2844        150.6084
 -14170750.69543 -10990211.97742  23067970.8414   23067971.6244   23067970.9654
     -2970.4414      -2314.6224
  -2715529.17743  -2110333.35442  23908153.1134   23908156.5174   23908153.3304
      3332.0304       2596.3834
 05  9 20  0 22  0.0000000  0 10G28G11G 1G 3G20G19G14G 9G22G31
 -11401508.63143  -8873883.22042  23629076.2394   23629077.4214   23629075.4974
        -8.1904         -6.3984
 -24732493.92344 -19220513.65242  21034452.0244   21034453.8824   21034451.4484
      1737.4544       1353.8734
 -14191575.23643 -11009059.05742  23107000.2614   23107003.9404   23106998.7974
      3102.4264       2417.4724
  -7724593.60343  -5974156.98242  24046580.3034   24046583.4504   24046579.1314
     -3715.8734      -2895.4744
  -6011339.68743  -4633903.67342  24631266.4584   24631272.7414   24631267.5764
      3732.2204       2908.2324
 -21189025.51743 -16441152.91642  21550037.9314   21550039.6714   21550037.0234
     -2267.8934      -1767.1944
 -16813840.45843 -13044973.03442  22023552.6474   22023554.6154   22023552.3594
      1289.5414       1004.8374
  -4481931.28943  -3460320.23842  24557382.6384   24557386.3044   24557383.3124
       172.2624        134.2384
 -14081515.83643 -10920678.33642  23084952.0494   23084952.6574   23084951.8084
     -2978.1224      -2320.6054
  -2815338.37943  -2188106.74842  23889158.8384   23889163.5994   23889160.4574
      3322.5004       2588.9594
 05  9 20  0 22 30.0000000  0 10G28G11G 1G 3G20G19G14G 9G22G31
 -11400963.08543  -8873458.11242  23629180.1954   23629182.7614   23629179.7264
       -27.5684        -21.4594
 -24784414.64044 -19260971.35542  21024571.7664   21024573.5784   21024571.5614
      1724.3974       1343.6954
 -14284478.97443 -11081451.55842  23089320.6664   23089324.1674   23089320.3564
      3091.5754       2409.0364
  -7613060.37043  -5887247.99142  24067804.0114   24067805.6854   24067803.6664
     -3719.8294      -2898.5314
  -6123246.55143  -4721103.80542  24609972.6094   24609976.5154   24609971.5444
      3727.9274       2904.8834
 -21120754.75143 -16387954.93142  21563029.5424   21563030.5904   21563028.4854
     -2283.0454      -1778.9834
 -16852220.79743 -13074879.77242  22016248.8954   22016250.5844   22016248.3584
      1269.6344        989.3384
  -4486756.94943  -3464080.50742  24556465.2204   24556468.5004   24556464.6464
       150.3994        117.1964
 -13992047.66543 -10850962.88842  23101977.8964   23101977.9614   23101977.3714
     -2985.9534      -2326.7274
  -2914845.62243  -2265644.87242  23870224.7484   23870228.5894   23870225.5914
      3311.8864       2580.7014
 05  9 20  0 23  0.0000000  0 10G28G11G 1G 3G20G19G14G 9G22G31
 -11399835.71943  -8872579.65242  23629393.8294   23629397.1464   23629393.5174
       -46.9064        -36.5474
 -24835951.42544 -19301129.88542  21014764.4764   21014766.6054   21014764.2174
      1711.7944       1333.8734
 -14377060.14543 -11153592.70342  23071703.3794   23071706.9824   23071702.8234
      3080.9464       2400.7404
  -7501398.60443  -5800238.83142  24089052.7114   24089056.8984   24089051.4234
     -3723.9124      -2901.7404
  -6235041.56443  -4808216.78642  24588699.5464   24588703.4174   24588698.3504
      3724.9324       2902.5524
 -21052029.86643 -16334403.08842  21576108.1364   21576108.8024   21576106.9034
     -2297.9034      -1790.5684
 -16890010.97643 -13104326.65242  22009057.8334   22009059.7524   22009057.3664
      1250.1344        974.1344
  -4490937.32243  -3467337.94642  24555671.0064   24555672.8244   24555670.0314
       128.9804        100.5134
 -13902348.41443 -10781067.35542  23119047.5994   23119046.8664   23119047.3614
     -2993.4304      -2332.5494
  -3014047.98243  -2342945.42042  23851348.4834   23851351.0474   23851346.9174
      3302.0834       2573.0614
 05  9 20  0 23 30.0000000  0 10G28G11G 1G 3G20G19G14G 9G22G31
 -11398126.89443  -8871248.10742  23629720.6384   23629721.0224   23629718.8364
       -67.0264        -52.2484
 -24887102.54444 -19340987.89842  21005030.7544   21005032.6244   21005030.5154
      1698.2194       1323.2874
 -14469315.89943 -11225480.27442  23054146.9674   23054150.7534   23054145.6194
      3069.3314       2391.6554
  -7389610.43443  -5713131.21342  24110325.0354   24110329.2204   24110323.8914
     -3728.7214      -2905.4894
  -6346722.92543  -4895241.15442  24567447.6174   24567451.1834   24567447.2784
      3720.0754       2898.7594
 -20982852.65443 -16280498.77842  21589271.7464   21589272.5184   21589270.7834
     -2313.7544      -1802.9194
 -16927209.97843 -13133312.86742  22001979.3614   22001980.9494   22001978.1144
      1229.7934        958.2794
  -4494472.10343  -3470092.33742  24554997.9684   24555000.8964   24554998.4024
       106.4634         82.9584
 -13812419.70043 -10710993.03342  23136160.1364   23136160.3294   23136159.2744
     -3001.7474      -2339.0124
  -3112942.69043  -2420006.22142  23832529.8424   23832531.2334   23832528.0964
      3291.1034       2564.4904
 05  9 20  0 24  0.0000000  0 10G28G11G 1G 3G20G19G14G 9G22G31
 -11395836.76743  -8869463.60642  23630156.3554   23630156.8184   23630156.0174
       -85.9494        -66.9544
 -24937867.38044 -19380544.91042  20995370.7794   20995372.4864   20995370.2014
      1685.7824       1313.6054
 -14561243.71943 -11297112.31042  23036653.3254   23036657.5944   23036652.5914
      3058.8204       2383.4914
  -7277698.55643  -5625927.15042  24131620.8434   24131624.2984   24131620.9074
     -3732.0994      -2908.1274
  -6458289.22543  -4982175.91942  24546217.5494   24546219.8624   24546216.5804
      3716.4964       2895.9664
 -20913225.06243 -16226243.52442  21602521.5374   21602522.1774   21602520.7194
     -2328.2774      -1814.2294
 -16963816.46243 -13161837.38142  21995013.2464   21995014.9924   21995012.2284
      1210.2904        943.0954
  -4497361.00543  -3472343.42842  24554446.9544   24554452.0244   24554447.3494
        85.5174         66.6394
 -13722262.95543 -10640741.01442  23153316.8244   23153316.1844   23153316.4554
     -3008.9904      -2344.6664
  -3211527.36643  -2496825.45642  23813768.6474   23813770.8294   23813767.7784
      3280.9654       2556.6044
 05  9 20  0 24 30.0000000  0 10G28G11G 1G 3G20G19G14G 9G22G31
 -11392965.56043  -8867226.29942  23630701.5784   23630702.5524   23630701.0834
      -105.6064        -82.3044
 -24988244.60144 -19419799.88342  20985784.0914   20985785.8134   20985783.7754
      1672.4804       1303.2224
 -14652840.43243 -11368486.34342  23019223.8564   23019226.3684   23019222.2694
      3047.2504       2374.4734
  -7165664.67343  -5538628.02842  24152940.8454   24152943.7204   24152940.3374
     -3736.8704      -2911.8624
  -6569738.92943  -5069019.75442  24525006.1064   24525013.3404   24525006.4744
      3712.5544       2892.9024
 -20843148.35143 -16171638.30842  21615856.5484   21615857.6654   21615855.8704
     -2343.7594      -1826.3224
 -16999828.45043 -13189898.65742  21988160.1514   21988162.4134   21988159.3054
      1190.2674        927.4814
  -4499603.54543  -3474090.88342  24554021.6374   24554023.6324   24554021.2794
        63.9284         49.8144
 -13631881.38943 -10570313.81342  23170515.2584   23170516.1264   23170514.1634
     -3016.7934      -2350.7564
  -3309798.89843  -2573400.66242  23795067.6594   23795071.6774   23795066.0964
      3270.3294       2548.3194
 05  9 20  0 25  0.0000000  0 10G28G11G 1G 3G20G19G14G 9G22G31
 -11389513.92643  -8864536.73342  23631358.9954   23631361.0164   23631357.6044
      -125.6714        -97.9424
 -25038232.52544 -19458751.51442  20976272.3624   20976273.4874   20976271.5484
      1658.8144       1292.5764
 -14744103.48743 -11439600.39742  23001856.8004   23001860.5434   23001856.6374
      3035.6064       2365.4024
  -7053511.49843  -5451235.96542  24174283.7024   24174287.0094   24174282.3924
     -3741.2714      -2915.2774
  -6681070.38343  -5155771.48542  24503822.2504   24503825.7544   24503821.5534
      3708.1974       2889.5004
 -20772624.33043 -16116684.54242  21629277.0494   21629277.6724   21629276.3284
     -2359.1114      -1838.2724
 -17035245.18443 -13217496.09142  21981421.0254   21981422.8584   21981419.7494
      1169.7014        911.4534
  -4501199.55043  -3475334.53842  24553716.2704   24553720.1664   24553717.0184
        41.6714         32.4674
 -13541276.68543 -10499712.75542  23187757.0084   23187756.6794   23187755.3524
     -3024.7734      -2356.9754
  -3407754.64643  -2649729.83342  23776427.9684   23776431.1584   23776426.7934
      3258.9914       2539.4744
 05  9 20  0 25 30.0000000  0 10G28G11G 1G 3G20G19G14G 9G22G31
 -11385481.74143  -8861394.77342  23632125.5124   23632128.7854   23632125.5524
      -143.8254       -112.0934
 -25087830.09644 -19497398.96442  20966833.8634   20966835.6334   20966833.4474
      1647.0584       1283.4284
 -14835030.04543 -11510452.21942  22984553.1764   22984557.7304   22984553.3224
      3025.5784       2357.5744
  -6941241.03243  -5363752.50242  24195647.1744   24195651.2754   24195646.6084
     -3743.8384      -2917.2694
  -6792281.98643  -5242429.84442  24482660.9864   24482663.1914   24482659.5994
      3705.4134       2887.3304
 -20701654.78543 -16061383.60342  21642782.6394   21642782.7364   21642781.4104
     -2372.6964      -1848.8564
 -17070065.13743 -13244628.50042  21974794.2844   21974797.0254   21974793.9314
      1151.0114        896.8984
  -4502148.76443  -3476074.19242  24553537.1454   24553538.4454   24553537.6004
